00100374 TerminatedCString /lib64/ld-linux-x86-64.so.2
001015b9 string-utf8 _ITM_deregisterTMCloneTable
001015d5 string-utf8 __gmon_start__
001015e4 string-utf8 _ITM_registerTMCloneTable
001015fe string-utf8 libusb_get_device_descriptor
0010161b string-utf8 libusb_init
00101627 string-utf8 libusb_get_bus_number
0010163d string-utf8 libusb_free_device_list
00101655 string-utf8 libusb_get_device_list
0010166c string-utf8 libusb_get_device_address
00101686 string-utf8 libusb_exit
00101692 string-utf8 str2ba
00101699 string-utf8 bachk
0010169f string-utf8 modf
001016a4 string-utf8 hypot
001016aa string-utf8 pow
001016ae string-utf8 floor
001016b4 string-utf8 roundf
001016bb string-utf8 sincos
001016c2 string-utf8 sqrt
001016c7 string-utf8 atan
001016cc string-utf8 trunc
001016d2 string-utf8 atan2
001016d8 string-utf8 asin
001016dd string-utf8 round
001016e3 string-utf8 dbus_connection_send
001016f8 string-utf8 dbus_connection_read_write_dispatch
0010171c string-utf8 dbus_bus_get
00101729 string-utf8 dbus_message_append_args
00101742 string-utf8 dbus_connection_add_filter
0010175d string-utf8 dbus_message_new_signal
00101775 string-utf8 dbus_message_get_args
0010178b string-utf8 dbus_error_is_set
0010179d string-utf8 dbus_message_is_signal
001017b4 string-utf8 dbus_message_unref
001017c7 string-utf8 dbus_error_init
001017d7 string-utf8 dbus_message_set_no_reply
001017f1 string-utf8 dbus_bus_add_match
00101804 string-utf8 dbus_error_free
00101814 string-utf8 cfmakeraw
0010181e string-utf8 globfree
00101827 string-utf8 optind
0010182e string-utf8 strcpy
00101835 string-utf8 nanosleep
0010183f string-utf8 gethostname
0010184b string-utf8 snprintf
00101854 string-utf8 setsockopt
0010185f string-utf8 chmod
00101865 string-utf8 __strlcpy_chk
00101873 string-utf8 getpeername
0010187f string-utf8 ctime
00101885 string-utf8 _setjmp
0010188d string-utf8 shmat
00101893 string-utf8 clock_gettime
001018a1 string-utf8 __ctype_toupper_loc
001018b5 string-utf8 in6addr_loopback
001018c6 string-utf8 __stack_chk_fail
001018d7 string-utf8 __printf_chk
001018e4 string-utf8 setgid
001018eb string-utf8 __fdelt_chk
001018f7 string-utf8 __assert_fail
00101905 string-utf8 shmdt
0010190b string-utf8 sigfillset
00101916 string-utf8 stat
0010191b string-utf8 freeaddrinfo
00101928 string-utf8 getaddrinfo
00101934 string-utf8 sigaction
0010193e string-utf8 __longjmp_chk
0010194c string-utf8 cfgetospeed
00101958 string-utf8 fcntl
0010195e string-utf8 closedir
00101967 string-utf8 realpath
00101970 string-utf8 bind
00101975 string-utf8 strspn
0010197c string-utf8 setuid
00101983 string-utf8 strrchr
0010198b string-utf8 unlink
00101992 string-utf8 memmove
0010199a string-utf8 tcflush
001019a2 string-utf8 nice
001019a7 string-utf8 strtod
001019ae string-utf8 setgroups
001019b8 string-utf8 fopen
001019be string-utf8 __isoc23_sscanf
001019ce string-utf8 system
001019d5 string-utf8 socket
001019dc string-utf8 cfgetispeed
001019e8 string-utf8 strlcat
001019f0 string-utf8 strlen
001019f7 string-utf8 getgrnam
00101a00 string-utf8 __ctype_b_loc
00101a0e string-utf8 __stpncpy_chk
00101a1c string-utf8 read
00101a21 string-utf8 __memcpy_chk
00101a2e string-utf8 strstr
00101a35 string-utf8 tcdrain
00101a3d string-utf8 strnlen
00101a45 string-utf8 __vfprintf_chk
00101a54 string-utf8 __isoc23_strtol
00101a64 string-utf8 __vsnprintf_chk
00101a74 string-utf8 pthread_create
00101a83 string-utf8 getpid
00101a8a string-utf8 recv
00101a8f string-utf8 readlink
00101a98 string-utf8 stdout
00101a9f string-utf8 optarg
00101aa6 string-utf8 pthread_mutex_lock
00101ab9 string-utf8 isatty
00101ac0 string-utf8 __isoc23_strtoll
00101ad1 string-utf8 gmtime_r
00101ada string-utf8 __sprintf_chk
00101ae8 string-utf8 getpwnam
00101af1 string-utf8 __memmove_chk
00101aff string-utf8 __open_2
00101b08 string-utf8 strftime
00101b11 string-utf8 strcasecmp
00101b1c string-utf8 __fprintf_chk
00101b2a string-utf8 __xpg_basename
00101b39 string-utf8 shutdown
00101b42 string-utf8 __libc_start_main
00101b54 string-utf8 stderr
00101b5b string-utf8 in6addr_any
00101b67 string-utf8 __strlcat_chk
00101b75 string-utf8 glob
00101b7a string-utf8 listen
00101b81 string-utf8 cfsetospeed
00101b8d string-utf8 __strcat_chk
00101b9a string-utf8 openlog
00101ba2 string-utf8 getprotobyname
00101bb1 string-utf8 inet_ntop
00101bbb string-utf8 getsid
00101bc2 string-utf8 __cxa_finalize
00101bd1 string-utf8 localtime
00101bdb string-utf8 putenv
00101be2 string-utf8 cfsetispeed
00101bee string-utf8 strchr
00101bf5 string-utf8 __syslog_chk
00101c02 string-utf8 getgid
00101c09 string-utf8 strerror
00101c12 string-utf8 readdir
00101c1a string-utf8 getservbyname
00101c28 string-utf8 shmget
00101c2f string-utf8 getenv
00101c36 string-utf8 pthread_mutex_init
00101c49 string-utf8 calloc
00101c50 string-utf8 accept
00101c57 string-utf8 fclose
00101c5e string-utf8 memset
00101c65 string-utf8 __isoc23_strtoul
00101c76 string-utf8 ioctl
00101c7c string-utf8 fputc
00101c82 string-utf8 tcgetattr
00101c8c string-utf8 fputs
00101c92 string-utf8 connect
00101c9a string-utf8 pthread_mutex_unlock
00101caf string-utf8 strlcpy
00101cb7 string-utf8 opendir
00101cbf string-utf8 __snprintf_chk
00101cce string-utf8 getuid
00101cd5 string-utf8 getegid
00101cdd string-utf8 daemon
00101ce4 string-utf8 access
00101ceb string-utf8 tcsetattr
00101cf5 string-utf8 pselect
00101cfd string-utf8 memcpy
00101d04 string-utf8 fwrite
00101d0b string-utf8 strcmp
00101d12 string-utf8 qsort
00101d18 string-utf8 __errno_location
00101d29 string-utf8 shmctl
00101d30 string-utf8 getopt_long
00101d3c string-utf8 strerror_r
00101d47 string-utf8 strptime
00101d50 string-utf8 strncmp
00101d58 string-utf8 geteuid
00101d60 string-utf8 __strncat_chk
00101d6e string-utf8 __cxa_atexit
00101d7b string-utf8 libusb-1.0.so.0
00101d8b string-utf8 libbluetooth.so.3
00101d9d string-utf8 libm.so.6
00101da7 string-utf8 libdbus-1.so.3
00101db6 string-utf8 libc.so.6
00101dc0 string-utf8 LIBDBUS_1_3
00101dcc string-utf8 GLIBC_2.29
00101dd7 string-utf8 GLIBC_2.35
00101de2 string-utf8 GLIBC_2.2.5
00101dee string-utf8 GLIBC_2.15
00101df9 string-utf8 GLIBC_2.7
00101e03 string-utf8 GLIBC_2.14
00101e0e string-utf8 GLIBC_2.33
00101e19 string-utf8 GLIBC_2.27
00101e24 string-utf8 GLIBC_2.42
00101e2f string-utf8 GLIBC_2.34
00101e3a string-utf8 GLIBC_2.3
00101e44 string-utf8 GLIBC_2.3.4
00101e50 string-utf8 GLIBC_2.17
00101e5b string-utf8 GLIBC_2.11
00101e66 string-utf8 GLIBC_2.4
00101e70 string-utf8 GLIBC_2.38
0011bcc2 string unused
001a0039 string /org/gpsd
001a0043 string # DBUS export enabled.
001a005a string # KPPS enabled.
001a006a string # Magic Hat enabled.
001a009d string passivesock_af() -> %ld 
001a00bb string Device not active
001a00cd string invalid hex string
001a00e0 string write to device failed
001a00f7 string GPS <=: %s not active 
001a010e string close(%d) in detach_client() 
001a012c string => client(%d) len %zu: %s 
001a0147 string => client(%d) len %zu: =%s 
001a0163 string client(%d) write: %s(%d) 
001a017d string client(%d) has vanished. 
001a0197 string ,"qErr":%ld
001a01a3 string CORE: open_device(%s) fd %ld 
001a01c1 string  NTP%d,
001a01c9 string  NTP%d
001a01d0 string awaken(%d) fd %ld, path %s 
001a01ec string %s: open failed 
001a0200 string all_reports(): changed %s 
001a021b string overlong RTCM2 packet >%s< 
001a0237 string NTP: No time this packet 
001a0251 string NTP: new time == 0 
001a0265 string NTP: Already reported %llu 
001a0281 string NTP: No shm_clock_unit 
001a0299 string changed: %s set_pending %s 
001a02b5 string time to report a fix 
001a02cb string <= GPS (binary tpv) %s: %s 
001a02e7 string <= GPS (binary sky) %s: %s 
001a0303 string <= AIS (binary ais) %s: %s 
001a0324 string SUDO_COMMAND
001a0331 string ?bD:F:f:GhlNnpP:rS:s:V
001a0348 string -f has invalid framing %s 
001a0363 string -s has invalid speed %s 
001a037c string -s has invalid speed %ld 
001a0396 string 3.27.5
001a039d string %s: %s (revision %s) 
001a03b3 string control socket %s is fd %ld 
001a03d0 string daemonization failed: %s(%d) 
001a03ee string starting uid %d, gid %d 
001a0407 string Command line: %s 
001a0419 string -r (--badtime) is DANGEROUS 
001a0436 string listening on port %s 
001a044c string Over long device path %s 
001a0466 string dialout
001a046e string CORE: await data 
001a0480 string CORE: accept: fail: %s(%d) 
001a049c string accept: %s(%d) 
001a04ac string read control commands 
001a04c3 string <= control(%ld): %s 
001a04d8 string <= control(%d): removing %s 
001a0507 string gpsd-3.27.5/gpsd/gpsd.c
001a051f string locresult != -23
001a0530 string {"class":"ERROR"}  
001a0544 string <= control(%d): adding %s 
001a055f string ?devices
001a0568 string {"class":"OK"}  
001a0579 string close(%ld) of control socket 
001a0597 string poll active devices 
001a05ac string gpsd_multipoll(%ld) = %d 
001a05c6 string checking client(%d) 
001a05db string <= client(%d): error read 
001a05f6 string <= client(%d): eof read 
001a060f string <= client(%d): %s 
001a0622 string ?DEVICES;
001a062d string WATCH
001a0633 string ?DEVICE
001a0642 string ?POLL;
001a0649 string ],"gst":[
001a0653 string ],"sky":[
001a065d string ?VERSION;
001a0667 string ERROR response: %s 
001a067b string device %d (fd %ld) released 
001a0698 string device %d closed 
001a06aa string unflagging descriptor %ld 
001a06c5 string exiting. 
001a06cf string badtime
001a06d7 string debug
001a06dd string drivers
001a06e5 string foreground
001a06f0 string framing
001a06fd string listenany
001a0707 string nowait
001a070e string readonly
001a0717 string passive
001a071f string pidfile
001a0727 string sockfile
001a0730 string GPSD_SHM_KEY
001a073d string SHM: shmat failed: %s(%d) 
001a0758 string SHM: atexit() failed: %s(%d) 
001a0776 string /run/%s%s.sock
001a0785 string /tmp/%s%s.sock
001a0794 string NTP: chrony_send(%d) %s(%d) 
001a07b1 string accepted
001a07ba string accepted chrony sock
001a07cf string skipped ship_to_ntp=0
001a07e5 string chrony.clk.
001a07f1 string chrony.
001a07f9 string /dev/ttyAMA0
001a0806 string /dev/gpsd0
001a0811 string LISTEN_PID
001a081c string LISTEN_FDS
001a0827 string => Probing for Garmin NMEA 
001a0843 string $PGRMCE
001a084b string => Probing for SiRF 
001a0860 string $PSRF100,0,%d,%d,%d,0
001a0876 string => Probing for FV-18 
001a088c string $PFEC,GPint
001a0898 string $PTNLSNM,0139,01
001a08a9 string => Probing for Evermore 
001a08c2 string => Probing for GPSClock 
001a08db string $PFEC,GPsrq
001a08e7 string => Probing for Ashtech 
001a090a string => Probing for UBX 
001a091e string => Probing for MediaTek 
001a0937 string $PMTK605
001a0940 string => Probing for Javad GREIS 
001a095c string print,/par/rcv/vendor
001a0972 string => Probing for ALLYSTAR 
001a098b string => Probing for CASIC 
001a09a1 string *%02X  
001a09a9 string $PMTK300,%u,0,0,0,0
001a09bd string $PQBAUD,W,%d
001a09ca string GPS:GPGGA %d  
001a09d9 string => GPS: %s 
001a09e5 string => GPS: %s FAILED 
001a09f8 string @B6=%d
001a09ff string @F28.6=1
001a0a08 string AIVDM packet length %zd: %s 
001a0a25 string overlong AIVDM packet. 
001a0a3d string corrupted AIVDM packet. 
001a0a56 string malformed AIVDM packet. 
001a0a6f string !AIVDO
001a0a76 string invalid AIS channel 0x%0X . 
001a0a93 string RTCM 3.x packet %d 
001a0aa7 string $PGRMC1,1,1,1,,,,2,W,N
001a0abe string $PGRMC1E
001a0ac7 string $PGRMO,,2
001a0ad1 string $PGRMO,GPGGA,1
001a0ae0 string $PGRMO,GPGSA,1
001a0aef string $PGRMO,GPGSV,1
001a0afe string $PGRMO,GPRMC,1
001a0b0d string $PGRMO,PGRME,1
001a0b22 string $PASHS,WAS,ON
001a0b30 string $PASHS,NME,ALL,A,OFF
001a0b45 string $PASHS,NME,GGA,A,ON
001a0b59 string $PASHS,NME,GSA,A,ON
001a0b6d string $PASHS,NME,GSV,A,ON
001a0b81 string $PASHS,NME,RMC,A,ON
001a0b95 string $PASHS,NME,ZDA,A,ON
001a0ba9 string $PMTK320,0
001a0bb4 string $PMTK300,1000,0,0,0.0,0.0
001a0bce string $PMTK301,2
001a0bd9 string $PMTK313,1
001a0be4 string $PMTK424
001a0bed string $IIGPQ,ASTRAL
001a0bfb string $PRWIILOG,ZCH,V,,
001a0c0d string $PGRMC1,1,2,1,,,,2,W,N
001a0c24 string $PGRMI,,,,,,,R
001a0c33 string EARTHA  
001a0c3c string Zodiac
001a0c43 string @F0.3=1
001a0c4b string @F2.2=1
001a0c53 string <= GPS: %s 
001a0c62 string localhost
001a0c6c string "device":"
001a0c77 string VERSION
001a0c7f string DEVICES
001a0c87 string ,"remote":"
001a0c96 string JSON, passing through %s 
001a0cb0 string <= GPS: %s
001a0cbb string unknown sentence: "%s" 
001a0cd3 string found trigger string %s. 
001a0ced string @@@@  MAW0C0B  
001a0cfd string MAW040B  
001a0d07 string MAW0513  
001a0d11 string MAW0606  
001a0d1b string MAW1304  
001a0d25 string MAW1404  
001a0d2f string MAW1701  
001a0d39 string MAW1800  
001a0d43 string MAW1223C34600  
001a0d53 string MAW2200  
001a0d5d string SY1  
001a0d63 string TR1  
001a0d69 string BT0  
001a0d6f string MAW0B00  
001a0d79 string MAW0C0A  
001a0d83 string @@@@GPS  
001a0d8d string SPARTN
001a0d94 string JSON slave driver
001a0da6 string AIVDM
001a0dac string iSync
001a0dbc string MTK-3301
001a0dcf string Garmin Simple Text
001a0de2 string RTCM104V3
001a0dec string RTCM104V2
001a0df6 string Jackson Labs Fury
001a0e08 string True North
001a0e14 string PTNTHTM
001a0e1c string Pre-2003 Delorme EarthMate
001a0e37 string EARTHA
001a0e3e string Delorme TripMate
001a0e4f string Furuno Electric GH-79L4
001a0e73 string San Jose Navigation FV18
001a0e99 string Ashtech
001a0ead string InertialSense
001a0ebb string Garmin NMEA
001a0ecf string NMEA0183
001a0ed8 string Unknown
001a0ee0 string SiRF: Writing MID %#02x: 
001a0efa string SiRF: sirf_speed(%u,%c,%d) 
001a0f16 string $PSRF100,0,%d,8,1,0
001a0f2a string stage: %d 
001a0f35 string SiRF: unset MID 0x40. 
001a0f4c string SiRF: unset MID 0x29. 
001a0f63 string SiRF: NTPD just SEEN_UTC_2 
001a0f7f string \x%02x
001a0f86 string SiRF: DBG 0xff: %s 
001a0f9a string $PSRF100,0,%d,%d,%d,%c
001a0fb1 string SID_GPS_SIRFNAV_COMPLETE
001a0fca string SID_GPS_SIRFNAV_TIMING
001a0fe1 string SID_GPS_DEMO_TIMING
001a0ff5 string SID_GPS_SIRFNAV_TIME_TAGS
001a100f string GPS_TRACKER_LOADER_STATE
001a1028 string SSB_SIRFNAV_START
001a103a string SSB_SIRFNAV_STOP
001a104b string SSB_RESULT
001a1056 string DEMO_TEST_STATUS
001a1067 string DEMO_TEST_STATE
001a1077 string DEMO_TEST_DATA
001a1086 string DEMO_TEST_STATS
001a1096 string DEMO_TEST_ERROR
001a10a6 string CLOCK_MODEL_DATA_BASE_OUT
001a10c0 string TEMPERATURE_TABLE
001a10d2 string TEMP_RECORDER_MESSAGE
001a10ed string RTC_ALARM
001a10f7 string RTC_CAL
001a10ff string MPM_ACQUIRED
001a110c string MPM_SEARCHES
001a1119 string MPM_PREPOS
001a1124 string MICRO_NAV_MEASUREMENT
001a113a string TCXO_UNCEARTAINTY
001a114c string SYSTEM_TIME_STAMP
001a115e string SSB_SIRF_STATS 6
001a116f string SSB_SIRF_STATS 7
001a1180 string SIRF_MSG_SSB_DL_STATUS_OUT
001a119b string SIRF_MSG_SSB_DL_OUT_TERM
001a11b4 string SiRF: runt len %zu 
001a11c8 string SiRF: ACK 0x0b: %#02x 
001a11df string SiRF: ACK 0x0b: %#02x/%02x 
001a11fb string SiRF: NACK 0x0c: %#02x 
001a1213 string SiRF: NACK 0x0c: %#02x/%02x 
001a1230 string SiRF: NLMD 0x1c gps_tow: %f 
001a124d string SiRF: MID 67,1 runt len %zu 
001a126f string Binary
001a1276 string Skytraq: setting MODE %s 
001a1294 string Skytraq 0x62: bad len %zu 
001a12af string Skytraq 0x63: bad len %zu 
001a12ca string Skytraq 0x63: SID %u 
001a12e0 string Skytraq 0x64: bad len %zu 
001a12fb string Skytraq 0x64/8b: mode %u 
001a1315 string Skytraq 0x64/fe: >%.32s< 
001a132f string Skytraq 0x65: bad len %zu 
001a134a string Skytraq 0x65/80: width %u 
001a1365 string Skytraq 0x65/81: PPS2 Hz %u 
001a1382 string Skytraq 0x6A: bad len %zu 
001a139d string Skytraq 0x6A/85: rate %u 
001a13b7 string Skytraq 0x6A/88: rate %u 
001a13d1 string Skytraq 0x7A: bad len %zu 
001a13ec string Skytraq 0x80: %s 
001a13fe string Skytraq 0x81: bad len %zu 
001a1419 string Skytraq 0x81: type %u crc %u 
001a1437 string Skytraq 0x83: ACK MID %#02x 
001a1454 string Skytraq 0x83: ACK 
001a1467 string Skytraq 0x84: NACK MID %#02x 
001a1485 string Skytraq 0x84: NACK 
001a1499 string Skytraq 0x86: bad len %zu 
001a14b4 string Skytraq 0x86: rate %u 
001a14cb string Skytraq 0x89: bad len %zu 
001a14e6 string Skytraq 0x8A: bad len %zu 
001a1501 string Skytraq 0x8B: bad len %zu 
001a151c string Skytraq 0x93: bad len %zu 
001a1537 string Skytraq 0x93: mode %u 
001a154e string Skytraq 0xAE: bad len %zu 
001a1569 string Skytraq 0xAE: datum %u 
001a1581 string Skytraq 0xAF: bad len %zu 
001a159c string Skytraq 0xB0: bad len %zu 
001a15b7 string Skytraq 0xB4: bad len %zu 
001a15d2 string Skytraq 0xB9: bad len %zu 
001a15ed string Skytraq 0xB9: mode %u 
001a1604 string Skytraq 0xBB: bad len %zu 
001a161f string Skytraq 0xBB: delay %d 
001a1637 string Skytraq
001a1643 string BPAC Polynomial
001a1657 string In-house
001a1660 string u-blox
001a1675 string Orbit
001a1685 string CRC-8-CCITT
001a1691 string CRC-16-CCITT
001a169e string CRC-24-Radix-64
001a16ae string CRC-32-CCITT
001a16bb string too many measurements 
001a16d2 string SuperStarII
001a16de string TSIP: tsip_write1(0x%s) 
001a16fa string TSIP: tf:%s 
001a1707 string TSIP: acq:%s eflag:%s 
001a171e string  %d (%d)
001a1727 string TSIP: flags:%s 
001a1737 string TSIPv1: svtype:%s flags:%s 
001a1755 string TSIP: tsip_detect found 
001a176e string hw %u %02u/%02u/%04u
001a1787 string TSIPv1: cons %s 
001a17ac string  Acutime 360
001a17b9 string  SMT 360
001a17c2 string  Lassen iQ
001a17cd string  Acutime 2000
001a17db string  ACE UTC
001a17e4 string  Copernicus, Thunderbolt E
001a17ff string TSIP x%02x: length %d: %s 
001a1821 string TSIP: %s
001a182a string TSIP: gds:%s ec:%s 
001a183e string  %u=%.1f
001a1847 string Machine ID x%x(%s)
001a185a string TSIP: stat1:%s stat2:%s 
001a1873 string TSIP: Dynamics:%s 
001a188a string TSIP: info:%s fmode:%s 
001a18a6 string TSIP: fixd:%s 
001a18b5 string TSIP: fix::%s 
001a18c4 string TSIP: mode:%s 
001a18d3 string TSIP: mode:%s status:%s 
001a18ec string TSIP: mask0::%s 
001a18fd string TSIP: sse:%s sssave:%s 
001a1915 string TSIPv1: Status:%s 
001a1928 string TSIPv1:ssmask %s 
001a193a string TSIPv1 x92-01: cause %u 
001a1953 string TSIPv1: cause:%s 
001a1965 string TSIPv1 xa0-00: command %u 
001a1980 string TSIPv1: ec:%s 
001a198f string TSIPv1 xd0-00: debug %u 
001a19a8 string TSIPv1 xd0-40: raw GNSS data 
001a19c6 string TSIPv1 xd0-41: raw GNSS data 
001a19e4 string TSIP: rm %s 
001a19f1 string TSIP x%02x: mask %s 
001a1a0a string Trimble TSIP
001a1a17 string OSC warning
001a1a23 string Ant Open
001a1a2c string Ant Short
001a1a36 string Not tracking Sats
001a1a48 string Osc unlocked
001a1a55 string Survey in progress
001a1a68 string No stored Position
001a1a7b string Leap Sec Pending
001a1a8c string Test Mode
001a1a96 string Position questionable
001a1aac string EEROM corrupt
001a1aba string PPS generated
001a1ac8 string ROM error
001a1ad2 string RAM error
001a1adc string FPGA error
001a1ae7 string Power error
001a1af3 string OSC error
001a1afd string UTC time
001a1b16 string Time not set
001a1b23 string no UTC info
001a1b2f string time from user
001a1b3e string No Fix
001a1b45 string 1D/OD Fix
001a1b4f string 2D Fix
001a1b56 string 3D Fix
001a1b62 string Manual
001a1b71 string Alt Holdt
001a1b7b string Filtered
001a1b84 string Man DGPS Off
001a1b91 string Man DGPS OOn
001a1b9e string Auto DGPS Off
001a1bac string Auto DGPS On
001a1bbe string Decoded
001a1bc6 string Decoded/Healthy
001a1be0 string Never
001a1be6 string Search
001a1bed string Old Fix
001a1bf5 string New Fix
001a1bfd string ECEF On
001a1c05 string ENU On
001a1c1e string Single Precision
001a1c2f string Double Position
001a1c5b string Used in Timing
001a1c6a string Used in Position
001a1c7b string Bad Parity
001a1c86 string Bad Health
001a1c91 string Superpackets
001a1c9e string Superpackets 2
001a1cad string RTC invalid
001a1cb9 string No Almanac
001a1cc4 string Don't Save
001a1ccf string Save at end
001a1cdb string SS Disabled
001a1ce7 string SS Enabled
001a1cf2 string Save failed
001a1cfe string Save OK
001a1d06 string Autonomous (2D/3D)
001a1d19 string Time Only (1-SV)
001a1d2a string 2D Clock hold
001a1d38 string Overdetermined
001a1d55 string Automatic
001a1d5f string Externa;
001a1d6e string PPS Good
001a1d77 string PPS Ungood
001a1d82 string Phase Locking
001a1d90 string OSC Wrm-up
001a1d9b string Freq lokgin
001a1da7 string Placing PPS
001a1db3 string Init Loop FIlter
001a1dc4 string Comp OCXO
001a1dce string Inactive
001a1dd7 string Not used
001a1de0 string REcovery Mode
001a1dee string Doing Fixes
001a1dfa string No GPS time
001a1e06 string Needs Init
001a1e11 string PDOP too high
001a1e1f string 0 usable sats
001a1e2d string 1 usable sat
001a1e3a string 2 usable sats
001a1e48 string 3 usable sats
001a1e56 string chosen sat unusable
001a1e6a string TRAIM rejected
001a1e79 string GPS Time Fix (OD mode)
001a1e90 string No Bat
001a1e97 string UTC Invalid
001a1ea3 string UTC Valid
001a1ead string Time Invalid
001a1eba string Time Valid
001a1f71 string Ignore
001a1f78 string SS restarted
001a1f85 string Don't save position
001a1f99 string Save position
001a1fc4 string Acquired
001a1fcd string Used in PPS
001a1fd9 string No Reset
001a1fe2 string Cold Reset
001a1fed string Hot Reset
001a1ff7 string Warm Reset
001a2002 string Factory Reset
001a2010 string System Reset
001a201d string Power Cycle
001a2029 string Watchdog
001a2032 string Hardfault
001a203c string (3D) Time Only
001a204b string Fix Based
001a2055 string When Valid
001a2060 string On/Negative
001a206c string Fix Based/Negative
001a207f string When Valid/Negative
001a2093 string Real Time Position
001a20a6 string Surveyed Position
001a20b8 string LLA Position
001a20ce string Velocity ENU
001a20db string Velocity ECEF
001a20ee string Port A
001a20f5 string Port B
001a20fc string Current Port
001a2109 string None bits
001a211c string Leap Pending
001a2129 string Survey in Progress
001a213c string GPS Almanac Incomplete
001a2153 string GLO Almanac Incomplete
001a216a string BDS Almanac Incomplete
001a2181 string GAL Almanac Incomplete
001a2198 string Leap Second Insertion
001a21ae string Leap Second Deletion
001a21c3 string Not tracking sats
001a21d5 string PPS bad
001a21dd string PPS not generated
001a21ef string Spoofing/Multipath
001a2202 string Jamming
001a220a string Parameter Error
001a221a string Length Error
001a2227 string Invalid Parket Format
001a223d string Invalid Checksum
001a224e string Bad TNL/User mode
001a2260 string Invalid Packet ID
001a2272 string Invalid Subacket ID
001a2286 string Update in Progress
001a2299 string Internal Error (div by 0)
001a22ba string UBX: NAV-RELPOSNED:0 no fix
001a22d6 string UBX: NAV-RELPOSNED:1 no fix
001a22f6 string reserved
001a22ff string UBX: RXM-SFRBX:   %s 
001a2315 string UBX: NAV-SVINFO: chipGen %s 
001a2332 string UBX: MON-RF bBlocks is zero 
001a234f string UBX: MON-RF: bad blockSize%u 
001a2379 string UBX-ESF-MEAS
001a2386 string UBX: MON-COMMS: portId:%s 
001a23a6 string SW %.30s,HW %.10s
001a23b8 string PROTVER=
001a23c1 string PROTVER 
001a23ca string  Not locked to UTC
001a23dd string UBX: NAV-TIMEGPS: valid %s 
001a23f9 string UBX: LOG-BATCH: runt len %zd
001a2416 string /ttyACM
001a241e string UBX: init protVer %u 
001a2434 string UBX identified 
001a2444 string UBX: CFG-NAV5 
001a2453 string UBX: CFG-NAVX5 
001a2463 string UBX: CFG-PRT: port %d 
001a247a string UBX: %s: %.*s 
001a2489 string UBX: LOG-BATCH 
001a2499 string UBX: LOG-INFO 
001a24a8 string UBX: LOG-INFO: runt len %zd
001a24c4 string UBX: LOG-RETRIEVEPOS 
001a24da string UBX: LOG-RETRIEVEPOSEXTRA 
001a24f5 string UBX: LOG-RETRIEVESTRING 
001a250e string UBX: MON-BATCH 
001a251e string UBX: MON-EXCEPT 
001a252f string UBX: MON-GNSS 
001a253e string UBX: MON-HW2 
001a254c string UBX: MON-HW3 
001a255a string UBX: MON-IO 
001a2567 string UBX: MON-IPC 
001a2575 string UBX: MON-MSGPP 
001a2585 string UBX: MON-PATCH 
001a2595 string UBX: MON-RXBUF 
001a25a5 string UBX: MON-RXBUF: tgt:%s 
001a25bd string UBX: MON-RXR 
001a25cb string UBX: MON-SCHED 
001a25db string UBX: MON-SMGR 
001a25ea string UBX: MON-SPAN 
001a25f9 string UBX: MON-TXBUF 
001a2609 string UBX: MON-TXBUF: tgt:%s 
001a2621 string UBX: MON-TXBUF: errors:%s 
001a263c string UBX: MON-USB 
001a264a string UBX: NAV-AOPSTATUS 
001a265e string UBX: NAV-ATT 
001a266c string NAV-DGPS: iTOW=%lld age %ld 
001a2689 string UBX: NAV-EKFSTATUS 
001a269d string UBX: NAV-EOE: iTOW=%lld 
001a26b6 string UBX: NAV-GEOFENCE 
001a26c9 string UBX: NAV-HPPOSECEF 
001a26dd string UBX: NAV-HPPOSLLH 
001a26f0 string UBX: NAV-ODO 
001a26fe string UBX: NAV-ORB 
001a270c string UBX: NAV-POSLLH 
001a271d string UBX: NAV-POSUTM 
001a272e string UBX: NAV-RELPOSNED 
001a2742 string UBX: NAV-RESETODO 
001a2755 string UBX: NAV-SBAS 
001a2764 string UBX: NAV-SBAS: bad length %zd
001a2782 string UBX: NAV-SOL 
001a2790 string UBX: NAV-TIMEBDS 
001a27a2 string UBX: NAV-TIMEGAL 
001a27b4 string UBX: NAV-TIMEGLO 
001a27c6 string UBX: NAV-TIMELS: valid %s 
001a27e1 string UBX: NAV-TIMEQZSS 
001a27f4 string UBX: NAV-VELECEF 
001a2806 string UBX: NAV-VELNED 
001a2817 string UBX: MGA-ACK 
001a2825 string UBX: MGA-DBD 
001a2833 string UBX: RXM-ALM 
001a2841 string UBX: RXM-EPH 
001a284f string UBX: RXM-IMES 
001a285e string UBX: RXM-MEASX 
001a286e string UBX: RXM-PMREQ 
001a287e string UBX: RXM-POSREQ 
001a288f string UBX: RXM-RAW 
001a289d string UBX: RXM-RLM 
001a28ab string UBX: RXM-RTCM 
001a28ba string UBX: RXM-SFRB: %u %u 
001a28d0 string UBX: SEC_SIGN 
001a28df string %02x%02x%02x%02x%02x%02x
001a28f8 string UBX: SEC-UNIQID bad version 
001a2915 string UBX: SEC-UNIQID: %s 
001a292a string UBX: TIM-DOSC 
001a2939 string UBX: TIM-FCHG 
001a2948 string UBX: TIM-HOC 
001a2956 string UBX: TIM-SMEAS 
001a2966 string UBX: TIM-TM 
001a2973 string UBX: TIM-TM2 
001a2981 string UBX: TIM-TOS 
001a298f string UBX: TIM-VCOCAL 
001a29a0 string UBX: TIM-VRFY 
001a29af string UBX: new PROTVER %u was %u 
001a29cb string UBX: queue %d 
001a29da string timebase:GNSS
001a29e8 string timebase:UTC
001a2a0b string RAIM:inactive
001a2a19 string RAIM:active
001a2a2e string qErr:Valid
001a2a39 string qErr:Invalid
001a2a46 string TP:Locked
001a2a50 string TP:Unlocked
001a2a65 string GNSS:GLONASS
001a2a72 string GNSS:BeiDou
001a2a7e string GNSS:Galileo
001a2a8b string GNSS:NavIc
001a2b18 string UTC:NIST
001a2b8e string Not Used
001a2b97 string Reserved
001a2ba0 string UNk proto,
001a2bcf string Err Unk,
001a2bd8 string No Err,
001a2be0 string Error,
001a2be7 string Unused,
001a2bf5 string msgTypeValid
001a2c2f string validCurrLs
001a2c3b string validTimeToLsEvent
001a2c4e string No Source
001a2c58 string firmware
001a2c61 string GPS GLONASS difference
001a2c78 string Aided data
001a2c83 string Configured
001a2c8e string towValid
001a2c97 string weekValid
001a2ca1 string leapSValid
001a2cb1 string Searching
001a2cbb string Unusable
001a2cc4 string Code locked
001a2cd0 string Carrier locked
001a2cdf string Antaris 4
001a2d0d string svUsed
001a2d14 string diffCorr
001a2d1d string orbitAvail
001a2d28 string orbitEph
001a2d31 string unhealthy
001a2d3b string orbitAlm
001a2d44 string orbitAop
001a2d4d string smoothed
001a2d56 string prSmoothed
001a2d61 string prUsed
001a2d68 string crUsed
001a2d6f string doUsed
001a2d76 string prCorrUsed
001a2d81 string crCorrUsed
001a2d8c string doCorrUsed
001a2d97 string Authenticated
001a2da5 string Klobuchar GPS
001a2db3 string Dual F Delay
001a2dc5 string RTCM2
001a2ddf string QZSS SLAS
001a2dee string ephAvail
001a2df7 string almAvail
001a2e00 string anoAvail
001a2e09 string aopAvail
001a2e12 string sbasCorrUsed
001a2e1f string rtcmCorrUsed
001a2e2c string slasCorrUsed
001a2e39 string spartnCorrUsed
001a2e48 string cbasCorrUsed
001a2e55 string validDate
001a2e5f string validTime
001a2e69 string fullyResolved
001a2e77 string validMag
001a2e80 string invalLlh
001a2e89 string confirmedAvai
001a2e97 string confirmedDate
001a2ea5 string confirmedTime
001a2eb3 string gnssFixOK
001a2ebd string diffSoln
001a2ec6 string vehRollValid
001a2ed3 string vehPitchValid
001a2ee1 string vehHeadingValid
001a2ef1 string CarrSolnFLT
001a2efd string CarrSolnFIX
001a2f10 string TOWSET
001a2f17 string headVehValid
001a2f43 string Jam Unk
001a2f52 string Jam Warn
001a2f5b string Jam Crit
001a2f74 string RTC Calibrated
001a2f83 string Safeboot Active
001a2f93 string Jam Critical
001a2fa0 string xtal Absent
001a2fb0 string alloc
001a2fb6 string RTCM3
001a2fbc string INF-DEBUG
001a2fc6 string INF-TEST
001a2fcf string INF-NOTICE
001a2fda string INF-WARNING
001a2fe6 string  INF-ERROR
001a2ff1 string ACK-ACK
001a3010 string L2 CL
001a301a string L2 CM
001a3032 string SBAS L1 C/A
001a3054 string E5 aI
001a305e string E5 aQ
001a3064 string GAL E5 bI
001a3072 string E5 bQ
001a307c string B1I D1
001a3087 string B1I D2
001a3092 string B2I D1
001a309d string B2I D2
001a30a8 string B1 Cp
001a30b2 string B1 Cd
001a30b8 string BDS B2 ap
001a30c2 string BDS B2 ad
001a310c string GLO L1 OF
001a3116 string GLO L2 OF
001a3120 string NavIc L5 A
001a312b string Reconfigure write failed 
001a3145 string %04x %04x %04x %04x %04x
001a315e string Sent Zodiac packet: %s 
001a3176 string ,"baseS":%d
001a3182 string ,"baseE":%.3f
001a3190 string ,"baseN":%.3f
001a319e string ,"baseU":%.3f
001a31ac string ,"baseL":%.3f
001a31c8 string "sv":%d
001a31d0 string ,"AODC":%d
001a31db string ,"AODE":%d
001a31e6 string ,"af0":%.12e
001a31f3 string ,"af1":%.12e
001a3200 string ,"af2":%.12e
001a320d string ,"alpha0":%.12e
001a321d string ,"alpha1":%.12e
001a322d string ,"alpha2":%.12e
001a323d string ,"alpha3":%.12e
001a324d string ,"beta0":%.12e
001a325c string ,"beta1":%.12e
001a326b string ,"beta2":%.12e
001a327a string ,"beta3":%.12e
001a3289 string ,"Cic":%.12e
001a3296 string ,"Cis":%.12e
001a32a3 string ,"Crc":%.12e
001a32b0 string ,"Crs":%.12e
001a32bd string ,"Cuc":%.12e
001a32ca string ,"Cus":%.12e
001a32d7 string ,"deltai":%.12e
001a32e7 string ,"deltan":%.12e
001a32f7 string ,"E1BHS":%d
001a3303 string ,"E5bHS":%d
001a330f string ,"e":%.12e
001a331a string ,"IDOT":%.16e
001a3328 string ,"IODA":%d
001a3333 string ,"IODC":%d
001a333e string ,"IODE":%d
001a3349 string ,"i0":%.16f
001a3355 string ,"M0":%.16f
001a3361 string ,"Omega0":%.16f
001a3371 string ,"Omegad":%.12e
001a3381 string ,"omega":%.16f
001a3390 string ,"sqrtA":%.12f
001a339f string ,"SISAa":%d
001a33ab string ,"SISAb":%d
001a33b7 string ,"svh":%d
001a33ce string ,"TGD2":%.1f
001a33db string ,"toa":%ld
001a33e6 string ,"toc":%ld
001a33f1 string ,"toe":%ld
001a33fc string ,"toeLSB":%ld
001a340a string ,"toeMSB":%ld
001a3418 string ,"URAI":%d
001a3423 string ,"WN":%d
001a342d string "class":"RAW"
001a343b string ,"sigid":%u
001a3447 string ,"freqid":%u
001a3454 string ,"pseudorange":%f
001a3466 string ,"carrierphase":%f
001a3479 string ,"doppler":%f
001a3487 string ,"c2c":%f
001a3491 string ,"l2c":%f
001a349b string UNKNOWN
001a34b5 string "device":"%s",
001a34dc string %.2f,
001a34e2 string "message":"%s"
001a34f1 string "tom":%u,"f":%u,
001a3502 string "tom":%u,"f":%u,"sm":%u,
001a351b string "gs":%u,
001a3524 string "ah":%.6f,
001a352f string "ar":"%d","sid":"%u",
001a3545 string "ad":"%.32s",
001a3553 string "as":"%.32s",
001a3561 string "x":%.4f,"y":%.4f,"z":%.4f,
001a357d string "ah":%.4f,
001a3588 string "data":[
001a3591 string "0x%08x",
001a359f string LCC1SP
001a35a6 string LCC2SP
001a35b5 string {"class":"RTCM3",
001a35c7 string "type":%u,
001a35d2 string "length":%u,
001a35df string "station_id":%u,"system":[
001a35fa string "GPS",
001a3601 string "GLONASS",
001a360c string "GALILEO",
001a3617 string ,"announcements":[
001a362a string "station_id":%u,"ind":"%u"
001a3645 string ,"l1_ca":%d
001a3651 string ,"l1_p":%d
001a365c string ,"l2_ca":%d
001a3668 string ,"l2_p":%d
001a3673 string "0x%02x",
001a367e string "class":"TPV"
001a368c string ,"status":%d
001a3699 string ,"mode":%d
001a36a4 string ,"time":"%s"
001a36b1 string ,"leapseconds":%d
001a36c3 string ,"ept":%.3f
001a36cf string ,"lat":%.9f
001a36ea string ,"altMSL":%.4f
001a36f9 string ,"alt":%.4f
001a3705 string ,"epx":%.3f
001a3711 string ,"epy":%.3f
001a371d string ,"epv":%.3f
001a3729 string ,"track":%.4f
001a3737 string ,"magtrack":%.4f
001a3748 string ,"magvar":%.1f
001a3757 string ,"speed":%.3f
001a3765 string ,"climb":%.3f
001a3773 string ,"epd":%.4f
001a377f string ,"eps":%.2f
001a378b string ,"epc":%.2f
001a3797 string ,"ecefx":%.4f
001a37a5 string ,"ecefy":%.4f
001a37b3 string ,"ecefz":%.4f
001a37c1 string ,"ecefvx":%.2f
001a37d0 string ,"ecefvy":%.2f
001a37df string ,"ecefvz":%.2f
001a37ee string ,"ecefpAcc":%.4f
001a37ff string ,"ecefvAcc":%.4f
001a3810 string ,"relN":%.3f,"relE":%.3f
001a3829 string ,"relD":%.3f
001a3836 string ,"relH":%.3f,"relL":%.3f
001a384f string ,"velN":%.3f,"velE":%.3f
001a3868 string ,"velD":%.3f
001a3875 string ,"geoidSep":%.3f
001a3886 string ,"rtime":%s
001a3892 string ,"pps":%s
001a389c string ,"eph":%.3f
001a38a8 string ,"sep":%.3f
001a38b4 string ,"datum":"%.40s"
001a38c5 string ,"depth":%.3f
001a38d3 string ,"dgpsAge":%.1f
001a38e3 string ,"dgpsSta":%d
001a38f1 string ,"dgpsRatio":%.3f
001a3903 string ,"ant":%d
001a390d string ,"antPwr":%d
001a391a string ,"jam":%u
001a3924 string ,"clockbias":%lld
001a3936 string ,"clockdrift":%lld
001a3949 string ,"wanglem":%.1f
001a3959 string ,"wangler":%.1f
001a3969 string ,"wanglet":%.1f
001a3979 string ,"wspeedr":%.1f
001a3989 string ,"wspeedt":%.1f
001a3999 string ,"temp":%.3f
001a39a6 string ,"wtemp":%.3f
001a39b5 string "class":"GST"
001a39c3 string ,"rms":%.3f
001a39cf string ,"major":%.3f
001a39dd string ,"minor":%.3f
001a39eb string ,"orient":%.3f
001a39fa string ,"lat":%.3f
001a3a06 string ,"lon":%.3f
001a3a12 string ,"alt":%.3f
001a3a1e string ,"ve":%.3f
001a3a29 string ,"vn":%.3f
001a3a34 string ,"vu":%.3f
001a3a40 string "class":"SKY"
001a3a4e string ,"gdop":%.2f
001a3a5b string ,"hdop":%.2f
001a3a68 string ,"pdop":%.2f
001a3a75 string ,"tdop":%.2f
001a3a82 string ,"xdop":%.2f
001a3a8f string ,"ydop":%.2f
001a3a9c string ,"vdop":%.2f
001a3aa9 string ,"nSat":%d,"uSat":%d
001a3abe string ,"satellites":[
001a3ace string {"PRN":%d
001a3ad8 string ,"gnssid":%d,"svid":%d
001a3aef string ,"sigid":%d
001a3afb string ,"freqid":%d
001a3b08 string ,"az":%.1f
001a3b13 string ,"el":%.1f
001a3b1e string ,"pr":%.3f
001a3b29 string ,"prRate":%.1f
001a3b38 string ,"prRes":%.1f
001a3b46 string ,"qual":%d
001a3b51 string ,"ss":%.1f
001a3b5c string ,"used":%s
001a3b67 string ,"health":%d
001a3b74 string ,"uSat":%u
001a3b7f string {"class":"DEVICE","path":"
001a3b9a string ,"driver":"
001a3ba6 string ,"sernum":"
001a3bb2 string ,"subtype":"
001a3bbf string ,"subtype1":"
001a3bcd string ,"readonly":"true"
001a3be0 string ,"activated":"%s"
001a3bf2 string ,"flags":%d
001a3bfe string ,"mincycle":%lld.%02ld
001a3c15 string ,"TOW17":%d
001a3c21 string ,"SOW":%d
001a3c2b string ,"TOW":%d
001a3c35 string ,"scaled":true
001a3c44 string ,"ALMANAC":{
001a3c51 string ,"ALMANAC1":{
001a3c5f string ,"EPHEMERIS":{
001a3c6e string ,"SVH%d":%u
001a3c7a string ,"NMCT":{"ai":%u
001a3c8b string ,"ERD%d":"null"
001a3c9b string ,"ERD%d":%.3f
001a3ca9 string ,"ERD%d":%d
001a3cb5 string ,"system_message":"%.144s"
001a3cd0 string ,"HEALTH":{"SV1":%d
001a3ce4 string ,"SV%d":%u
001a3cef string ,"scaled":%s
001a3cfc string ,"dataid":%u
001a3d09 string INVALID EPFD
001a3d16 string INVALID SHIP TYPE
001a3d28 string INVALID SIGNAL TYPE
001a3d3c string INVALID LOAD STATUS
001a3d50 string INVALID HAZARD TYPE
001a3d64 string INVALID EMMA WIND DIRECTION
001a3d80 string INVALID EMMA TYPE
001a3d92 string INVALID STATUS
001a3da1 string INVALID DIRECTION
001a3db3 string INVALID NAVAID TYPE
001a3dc7 string INVALID STATION TYPE
001a3ddc string Reserved for future use
001a3df4 string Not available
001a3e02 string Port-side to
001a3e0f string Starboard-side to
001a3e21 string Mooring buoy
001a3e2e string Anchorage
001a3e39 string "class":"AIS"
001a3e47 string "n/a"
001a3e4d string "fastleft"
001a3e58 string "fastright"
001a3e64 string "%.2f"
001a3e6b string "fast"
001a3e72 string ,"data":"%zd:%s"}  
001a3e86 string ,"ana_int":%.2f
001a3e96 string ,"ana_int":%u
001a3ea4 string ,"ana_ext1":%u
001a3eb3 string ,"ana_ext1":%.2f
001a3ec4 string ,"ana_ext2":%.2f
001a3ed5 string ,"ana_ext2":%u
001a3ee4 string ,"airdraught":%u}  
001a3ef8 string ,"persons":%u}  
001a3f09 string ,"lon":%.6f,"lat":%.6f}  
001a3f23 string ,"lon":%d,"lat":%d}  
001a3f39 string {"code":%u,"subtype":%u},
001a3f53 string {"lon":%.7f,"lat":%.7f},
001a3f6c string {"lon":%d,"lat":%d},
001a3f81 string ,"linkage":%u,"text":"%s"}  
001a3f9e string {"lon":%.6f,"lat":%.6f
001a3fb5 string ,"cspeed":%.1f},
001a3fc6 string {"lon":%d,"lat":%d
001a3fd9 string ,"cspeed":%u},
001a3fff string steady
001a4006 string increasing
001a4011 string decreasing
001a401c string thunderstorm
001a4029 string freezing rain
001a4037 string mixed/ice
001a404a string ,"lat":%.6f,"lon":%.6f
001a4061 string ,"visibility":%.1f
001a4074 string ,"waterlevel":%.1f
001a4087 string ,"lat":%d,"lon":%d
001a409a string ,"visibility":%u
001a40ab string ,"waterlevel":%d
001a40bc string ,"targets":[
001a40c9 string ,"%s":"%u"
001a40d4 string ,"%s":"%s"
001a40df string 0 blue cones/lights
001a40f3 string 1 blue cone/light
001a4105 string 2 blue cones/lights
001a4119 string 3 blue cones/lights
001a412d string 4 B-Flag
001a4136 string N/A (default)
001a4144 string Unloaded
001a414d string Loaded
001a4154 string Not Available
001a416c string Snow and ice
001a4179 string Thunderstorm
001a418a string Low temperature
001a419a string High temperature
001a41ab string Flood
001a41b1 string Forest Fire
001a41bd string Slight
001a41c4 string Medium
001a41cb string Strong
001a41d2 string North East
001a41dd string South East
001a41e8 string South
001a41ee string South West
001a41f9 string North West
001a4204 string Upstream
001a420d string Downstream
001a4218 string To left bank
001a4225 string To right bank
001a4233 string No light
001a423c string White
001a4242 string Yellow
001a4249 string Green
001a4253 string White flashing
001a4262 string Yellow flashing.
001a4273 string ,"country":"%s","gauges":[
001a42a4 string ,"lon":%.7f,"lat":%.7f
001a42bb string ,"lon":%d,"lat":%d
001a42ce string "nan"
001a42d4 string "high"
001a42db string ,"dest_mmsi":%u}  
001a42ee string ,"dest1":%u,"dest2":%u
001a4305 string ,"shipname":"%s"
001a4316 string ,"part":"%s"
001a4323 string ,"mothership_mmsi":%u
001a4339 string ,"accuracy":%s
001a4348 string Vessel, type unknown
001a435d string Motor freighter
001a436d string Motor tanker
001a437a string Container vessel
001a438b string Gas tanker
001a4396 string Motor freighter, tug
001a43ab string Motor tanker, tug
001a43bd string Motor freighter with tanker
001a43d9 string Tug, freighter
001a43e8 string Tug, tanker
001a43f4 string Tug freighter, coupled
001a440b string Freightbarge
001a4418 string Tankbarge
001a4422 string Freightbarge with containers
001a443f string Tankbarge, gas
001a444e string Pushtow, one cargo barge
001a4467 string Pushtow, two cargo barges
001a4481 string Pushtow, three cargo barges
001a449d string Pushtow, four cargo barges
001a44b8 string Pushtow, five cargo barges
001a44d3 string Pushtow, six cargo barges
001a44ed string Pushtow, seven cargo barges
001a4509 string Pushtow, eight cargo barges
001a4525 string Pushtow, nine or more barges
001a4542 string Pushtow, one tank/gas barge
001a455e string Illegal ship type value.
001a4577 string {"class":"%s","device":"%s"
001a4593 string ,"msg":"%.15s"
001a45a2 string ,"timeTag":%lu
001a45b1 string ,"heading":%.3f
001a45c1 string ,"mag_st":"%c"
001a45d0 string ,"mheading":%.3f
001a45e1 string ,"pitch":%.3f
001a45ef string ,"pitch_st":"%c"
001a4600 string ,"yaw":%.2f
001a460c string ,"yaw_st":"%c"
001a461b string ,"roll":%.3f
001a4628 string ,"roll_st":"%c"
001a4638 string ,"rot":%.3f
001a4644 string ,"dip":%.3f
001a4650 string ,"mag_len":%.3f
001a4660 string ,"mag_x":%.5f
001a466e string ,"mag_y":%.5f
001a467c string ,"mag_z":%.5f
001a468a string ,"acc_len":%.5f
001a469a string ,"acc_x":%.5f
001a46a8 string ,"acc_y":%.5f
001a46b6 string ,"acc_z":%.5f
001a46c4 string ,"gyro_temp":%.2f
001a46d6 string ,"gyro_x":%.5f
001a46e5 string ,"gyro_y":%.5f
001a46f4 string ,"gyro_z":%.5f
001a4707 string ,"string":%s
001a471f string ,"lon":%.9f
001a472b string ,"gSpeed":%.0f
001a473a string ,"heading":%.0f
001a474a string ,"tAcc":%.0f
001a4757 string ,"hAcc":%.0f
001a4764 string ,"sAcc":%.0f
001a4771 string ,"headAcc":%.0f
001a4781 string ,"pDOP":%.1f
001a478e string ,"distance":%.0f
001a479f string ,"tDistance":%.0f
001a47b1 string ,"distStd":%.1f
001a47c4 string All types of mobiles
001a47d9 string SAR airborne mobile station
001a47f5 string Aid to Navigation station
001a480f string Unspecified
001a481b string Reference point
001a482b string RACON
001a4831 string Fixed offshore structure
001a484a string Light, without sectors
001a4861 string Light, with sectors
001a4875 string Leading Light Front
001a4889 string Leading Light Rear
001a489c string Beacon, Cardinal N
001a48af string Beacon, Cardinal E
001a48c2 string Beacon, Cardinal S
001a48d5 string Beacon, Cardinal W
001a48e8 string Beacon, Port hand
001a48fa string Beacon, Starboard hand
001a4911 string Beacon, Isolated danger
001a4929 string Beacon, Safe water
001a493c string Beacon, Special mark
001a4951 string Cardinal Mark N
001a4961 string Cardinal Mark E
001a4971 string Cardinal Mark S
001a4981 string Cardinal Mark W
001a4991 string Port hand Mark
001a49a0 string Starboard hand Mark
001a49b4 string Preferred Channel Port hand
001a49d0 string Safe Water
001a49db string Special Mark
001a49e8 string Light Vessel / LANBY / Rigs
001a4a04 string Vessels shall not proceed.
001a4a1f string Undefined (default)
001a4a33 string Mandatory
001a4a3d string Recommended
001a4a49 string Alternative
001a4a55 string Recommended route through ice
001a4a73 string Ship route plan
001a4a83 string Reserved for future use.
001a4a9c string No RACON installed
001a4aaf string RACON not monitored
001a4ac3 string RACON operational
001a4ad5 string RACON ERROR
001a4ae1 string No light or no monitoring
001a4afb string Light ON
001a4b04 string Light OFF
001a4b0e string Light ERROR
001a4b1a string Operational
001a4b26 string Limited operation
001a4b38 string Out of order
001a4b45 string Fishing
001a4b4d string Towing
001a4b54 string Dredging or underwater ops
001a4b6f string Diving ops
001a4b7a string Military ops
001a4b87 string Sailing
001a4b8f string Pleasure Craft
001a4b9e string Pilot Vessel
001a4bab string Search and Rescue vessel
001a4bc8 string Port Tender
001a4bd4 string Anti-pollution equipment
001a4bed string Law Enforcement
001a4bfd string Spare - Local Vessel
001a4c12 string Medical Transport
001a4c24 string Cargo - Hazardous category A
001a4c41 string Cargo - Hazardous category B
001a4c5e string Cargo - Hazardous category C
001a4c7b string Cargo - Hazardous category D
001a4c98 string Tanker - Hazardous category A
001a4cb6 string Tanker - Hazardous category B
001a4cd4 string Tanker - Hazardous category C
001a4cf2 string Tanker - Hazardous category D
001a4d10 string Combined GPS/GLONASS
001a4d25 string Loran-C
001a4d2d string Chayka
001a4d34 string Integrated navigation system
001a4d51 string Surveyed
001a4d5a string Reserved (9)
001a4d67 string Reserved (10)
001a4d75 string Reserved (11)
001a4d83 string Reserved (12)
001a4d91 string Reserved (13)
001a4d9f string Reserved (14)
001a4dad string Internal GNSS
001a4dbb string Under way using engine
001a4dd2 string At anchor
001a4ddc string Not under command
001a4dee string Restricted maneuverability
001a4e09 string Constrained by her draught
001a4e24 string Moored
001a4e2b string Aground
001a4e33 string Engaged in fishing
001a4e46 string Under way sailing
001a4e58 string Reserved for HSC
001a4e69 string Reserved for WIG
001a4e7a string AIS-SART is active
001a4e8d string Not defined
001a4e99 string GALILEO
001a4ea9 string SHOUT
001a4eb4 string CLIENT
001a4ed3 string MISSING
001a4edb string %s:%s: %s
001a4ee5 string /etc/gpsd/device-hook
001a4efb string %s %s %s
001a4f04 string CORE: running %s 
001a4f16 string CORE: %s returned %d 
001a4f2c string CORE: selecting %s driver... 
001a4f4a string CORE: invalid GPS type "%s". 
001a4f68 string CORE: closing %s, fd %ld 
001a4f82 string DEACTIVATE
001a4f8d string CORE: gpsd_open(%s) fld %ld 
001a4faa string tcp://
001a4fb1 string udp://
001a4fbc string gpsd://
001a4fd0 string CORE: to gpsd_clear() fd %ld 
001a4fee string CORE: Probing "%s" driver... 
001a500c string CORE: no probe matched... 
001a5027 string CORE: activate fd %ld done 
001a5043 string CORE: select waits, maxfd %d 
001a5061 string CORE: pselect: %s(%d) 
001a5078 string CORE: pselect: timeout 
001a5090 string } -> {
001a509c string # EOF 
001a50a3 string CORE: synthetic EOF 
001a50b8 string CORE: start_time %lld 
001a50cf string CORE: Accepted packet on %s. 
001a50ed string CORE: %s %ubps 
001a50fd string CORE: parse_packet() = %s 
001a5118 string CORE: gpsd_poll(%s) %s 
001a5130 string CORE: polling %ld 
001a5143 string CORE: device signed off %s 
001a515f string CORE: %s returned zero bytes 
001a517d string ntrip://
001a5186 string dgpsip://
001a5199 string rtcm-sc104
001a51ae string SENT_PROBE
001a51b9 string SENT_GET
001a51c2 string ESTABLISHED
001a51ce string CLOSED
001a51d5 string INPROGRESS
001a51e0 string SOURCETABLE 200 OK  
001a51fa string NTRIP: Unexpected reply: %s. 
001a5218 string ENDSOURCETABLE
001a5227 string NTRIP: checking: >%s< 
001a5248 string NTRIP: Skipping: '%s' 
001a5264 string NTRIP: Skipping '%s' 
001a527a string Authorization: Basic %s  
001a5294 string NTRIP: lexer_getline() >%s< 
001a52b1 string 401 Unauthorized  
001a52c4 string NTRIP: not authorized for %s 
001a52e2 string ICY 200 OK  
001a52ef string HTTP/1.1 200 OK  
001a5301 string Transfer-Encoding: chunked  
001a531e string NTRIP: fcntl(%d) %s(%d) 
001a5337 string NTRIP: leftover: >%s< 
001a534e string NTRIP: => caster %s 
001a5363 string RTCM1_
001a53ee string SPARTN 2.0
001a53f9 string packet_discard() of %zu?? 
001a5414 string $STI,
001a541f string SPARTN 0x73 
001a542c string COMMENT: x%x 
001a543a string BDINRSTX
001a5443 string Skytraq = %s 
001a5461 string truefalsnil
001a546d string ALLY: buflen %d. paylen %u 
001a5489 string ALLY: bad length %d/%u 
001a54a1 string CASIC: bad length %d/%u 
001a54ba string Packet stash of %zu = %s 
001a54d4 string Unstuffed %d DLEs 
001a54e7 string Not a Garmin packet 
001a54fc string Not a TSIP packet 
001a550f string UBX: len %d 
001a551c string PACKET: no bytes ready 
001a5534 string GROUND_STATE
001a5541 string COMMENT_BODY
001a554e string COMMENT_RECOGNIZED
001a5561 string AIS_BANG
001a556a string AIS_LEAD_1
001a5575 string AIS_LEAD_2
001a5580 string AIS_LEAD_ALT1
001a558e string AIS_LEAD_ALT2
001a559c string AIS_LEAD_ALT3
001a55aa string AIS_LEAD_ALT4
001a55b8 string AIS_LEADER_END
001a55c7 string AIS_CR
001a55ce string AIS_RECOGNIZED
001a55dd string ALLY_LEADER_1
001a55eb string ALLY_LEADER_2
001a55f9 string ALLY_CLASS_ID
001a5607 string ALLY_MESSAGE_ID
001a5617 string ALLY_LENGTH_1
001a5625 string ALLY_LENGTH_2
001a5633 string ALLY_PAYLOAD
001a5640 string ALLY_CHECKSUM_A
001a5650 string ALLY_RECOGNIZED
001a5660 string CASIC_LEADER_1
001a566f string CASIC_LEADER_2
001a567e string CASIC_LENGTH_1
001a568d string CASIC_LENGTH_2
001a569c string CASIC_CLASS_ID
001a56ab string CASIC_MESSAGE_ID
001a56bc string CASIC_PAYLOAD
001a56ca string CASIC_CHECKSUM_A
001a56db string CASIC_CHECKSUM_B
001a56ec string CASIC_CHECKSUM_C
001a56fd string CASIC_RECOGNIZED
001a570e string DLE_LEADER
001a5719 string NMEA_DOLLAR
001a5725 string NMEA_PUB_LEAD
001a5733 string NMEA_VENDOR_LEAD
001a5744 string NMEA_LEADER_END
001a5754 string NMEA_PASHR_A
001a5761 string NMEA_PASHR_S
001a576e string NMEA_PASHR_H
001a577b string NMEA_BINARY_BODY
001a578c string NMEA_BINARY_CR
001a579b string NMEA_BINARY_NL
001a57aa string NMEA_CR
001a57b2 string NMEA_RECOGNIZED
001a57c2 string NMEA_LEAD_A
001a57ce string SIRF_ACK_LEAD_2
001a57de string SEATALK_LEAD_1
001a57ed string WEATHER_LEAD_1
001a57fc string HEADCOMP_LEAD_1
001a580c string TURN_LEAD_1
001a5818 string ECDIS_LEAD_1
001a5825 string SOUNDER_LEAD_1
001a5834 string TRANSDUCER_LEAD_1
001a5846 string BEIDOU_LEAD_1
001a5854 string QZSS_LEAD_1
001a5860 string ASTRAL_1
001a5869 string ASTRAL_2
001a5872 string ASTRAL_3
001a587b string ASTRAL_4
001a5884 string ASTRAL_5
001a588d string EARTHA_1
001a5896 string EARTHA_2
001a589f string EARTHA_3
001a58a8 string EARTHA_4
001a58b1 string EARTHA_5
001a58ba string SIRF_LEADER_1
001a58c8 string SIRF_LEADER_2
001a58d6 string SIRF_LENGTH_1
001a58e4 string SIRF_PAYLOAD
001a58f1 string SIRF_DELIVERED
001a5900 string SIRF_TRAILER_1
001a590f string SIRF_RECOGNIZED
001a591f string SKY_LEADER_2
001a592c string SKY_LENGTH_1
001a5939 string SKY_LENGTH_2
001a5946 string SKY_PAYLOAD
001a5952 string SKY_DELIVERED
001a5960 string SKY_CSUM
001a5969 string SKY_TRAILER_1
001a5977 string SKY_RECOGNIZED
001a5986 string AT1_LEADER
001a5991 string GTXT_RECOGNIZED
001a59a1 string EVERMORE_LEADER_1
001a59b3 string EVERMORE_LEADER_2
001a59c5 string EVERMORE_PAYLOAD
001a59d6 string EVERMORE_PAYLOAD_DLE
001a59eb string EVERMORE_RECOGNIZED
001a59ff string GEOSTAR_LEADER_1
001a5a10 string GEOSTAR_LEADER_2
001a5a21 string GEOSTAR_LEADER_3
001a5a32 string GEOSTAR_LEADER_4
001a5a43 string GEOSTAR_MESSAGE_ID_1
001a5a58 string GEOSTAR_MESSAGE_ID_2
001a5a6d string GEOSTAR_LENGTH_1
001a5a7e string GEOSTAR_LENGTH_2
001a5a8f string GEOSTAR_PAYLOAD
001a5a9f string GEOSTAR_CHECKSUM_A
001a5ab2 string GEOSTAR_CHECKSUM_B
001a5ac5 string GEOSTAR_CHECKSUM_C
001a5ad8 string GEOSTAR_RECOGNIZED
001a5aeb string GREIS_EXPECTED
001a5afa string GREIS_REPLY_1
001a5b08 string GREIS_REPLY_2
001a5b16 string GREIS_ID_1
001a5b21 string GREIS_ID_2
001a5b2c string GREIS_LENGTH_1
001a5b3b string GREIS_LENGTH_2
001a5b4a string GREIS_PAYLOAD
001a5b58 string GREIS_RECOGNIZED
001a5b69 string ITALK_LEADER_1
001a5b78 string ITALK_LEADER_2
001a5b87 string ITALK_LENGTH
001a5b94 string ITALK_PAYLOAD
001a5ba2 string ITALK_DELIVERED
001a5bb2 string ITALK_TRAILER
001a5bc0 string ITALK_RECOGNIZED
001a5bd1 string NAVCOM_EXPECTED
001a5be1 string NAVCOM_LEADER_1
001a5bf1 string NAVCOM_LEADER_2
001a5c01 string NAVCOM_LEADER_3
001a5c11 string NAVCOM_ID
001a5c1b string NAVCOM_LENGTH_1
001a5c2b string NAVCOM_LENGTH_2
001a5c3b string NAVCOM_PAYLOAD
001a5c4a string NAVCOM_CSUM
001a5c56 string NAVCOM_RECOGNIZED
001a5c68 string ONCORE_AT2
001a5c73 string ONCORE_ID1
001a5c7e string ONCORE_PAYLOAD
001a5c8d string ONCORE_CHECKSUM
001a5c9d string ONCORE_CR
001a5ca7 string ONCORE_RECOGNIZED
001a5cb9 string SUPERSTAR2_LEADER
001a5ccb string SUPERSTAR2_ID1
001a5cda string SUPERSTAR2_ID2
001a5ce9 string SUPERSTAR2_PAYLOAD
001a5cfc string SUPERSTAR2_CKSUM1
001a5d0e string SUPERSTAR2_CKSUM2
001a5d20 string SUPERSTAR2_RECOGNIZED
001a5d36 string UBX_LEADER_1
001a5d43 string UBX_LEADER_2
001a5d50 string UBX_CLASS_ID
001a5d5d string UBX_MESSAGE_ID
001a5d6c string UBX_LENGTH_1
001a5d79 string UBX_LENGTH_2
001a5d86 string UBX_PAYLOAD
001a5d92 string UBX_CHECKSUM_A
001a5da1 string UBX_RECOGNIZED
001a5db0 string ZODIAC_EXPECTED
001a5dc0 string ZODIAC_LEADER_1
001a5dd0 string ZODIAC_LEADER_2
001a5de0 string ZODIAC_ID_1
001a5dec string ZODIAC_ID_2
001a5df8 string ZODIAC_LENGTH_1
001a5e08 string ZODIAC_LENGTH_2
001a5e18 string ZODIAC_FLAGS_1
001a5e27 string ZODIAC_FLAGS_2
001a5e36 string ZODIAC_HSUM_1
001a5e44 string ZODIAC_PAYLOAD
001a5e53 string ZODIAC_RECOGNIZED
001a5e65 string RTCM2_SYNC_STATE
001a5e76 string RTCM2_SKIP_STATE
001a5e87 string RTCM2_RECOGNIZED
001a5e98 string RTCM3_LEADER_1
001a5ea7 string RTCM3_LEADER_2
001a5eb6 string RTCM3_PAYLOAD
001a5ec4 string RTCM3_RECOGNIZED
001a5ed5 string SPARTN_PRE_1
001a5ee2 string SPARTN_PRE_2
001a5eef string SPARTN_PRE_3
001a5efc string SPARTN_PAYDESC_1
001a5f0d string SPARTN_PAYDESC_2
001a5f1e string SPARTN_PAYDESC_3
001a5f2f string SPARTN_PAYDESC_4
001a5f40 string SPARTN_PAYDESC_5
001a5f51 string SPARTN_PAYDESC_6
001a5f62 string SPARTN_PAYDESC_7
001a5f73 string SPARTN_PAYDESC_8
001a5f84 string SPARTN_PAYLOAD
001a5f93 string SPARTN_AUTH
001a5f9f string SPARTN_RECOGNIZED
001a5fb1 string JSON_LEADER
001a5fbd string JSON_STRINGLITERAL
001a5fd0 string JSON_STRING_SOLIDUS
001a5fe4 string JSON_END_ATTRIBUTE
001a5ff7 string JSON_EXPECT_VALUE
001a6009 string JSON_END_VALUE
001a6018 string JSON_NUMBER
001a6024 string JSON_SPECIAL
001a6031 string JSON_RECOGNIZED
001a6041 string STASH_RECOGNIZED
001a6052 string TSIP_LEADER
001a605e string TSIP_PAYLOAD
001a606b string TSIP_DLE
001a6074 string TSIP_RECOGNIZED
001a6084 string GARMIN_RECOGNIZED
001a6096 string assert
001a609d string clear
001a60a3 string Assert
001a60aa string Clear
001a60b0 string Rejecting negative cycle 
001a60ca string Too short for 5Hz 
001a60dd string 1Hz trailing edge 
001a60f0 string Too long for 0.5Hz 
001a6104 string Unknown error
001a6112 string square 
001a611a string 1Hz leading edge 
001a612c string invisible pulse 
001a613d string 0.5 Hz square wave 
001a6151 string 5Hz PPS pulse 
001a6160 string missing last_fixtime 
001a6176 string this second already handled 
001a6193 string no report hook
001a61a2 string system clock went backwards
001a61be string timestamp out of range
001a61d5 string PPS:%s die: TIOCMIWAIT Error 
001a61f3 string PPS:%s %.10s ignored %.100s
001a620f string KPPS:%s fd %d cleaned up 
001a6229 string ktimer
001a6239 string KPPS:%s checking %s, %s 
001a6252 string KPPS:%s device not found. 
001a626d string /dev/pps%c
001a6278 string KPPS:%s pps_caps 0x%02X 
001a6291 string KPPS:%s have PPS_CANWAIT 
001a62ab string /dev/pps1
001a62bf string launched
001a62c8 string PPS:%s thread %s 
001a62da string %s,%u,%u,%s,%c,%s,%u
001a62f6 string d%02d.%02ld
001a6302 string %013.7f
001a630a string %012.7f
001a6312 string %.3f,
001a6318 string %.1f,%04d
001a6322 string %02d%02d%02d
001a632f string %011.7f
001a6345 string %.1f,
001a636c string $GPGSV,%d,%d,%02d
001a637e string ,%02d,%02.0f,%03.0f,%02.0f
001a6399 string $PRWIZCH
001a63a2 string ,%02u,%X
001a63ab string SER: gpsd_flush(%ld): %s(%d) 
001a63c9 string /proc
001a63cf string /proc/%.20s/fd/
001a63df string SER: fd %ld set speed %d(%d) 
001a63fd string SER: stat(%s) failed: %s(%d) 
001a641b string /dev/pts/
001a6425 string SER: fd %ld fixed speed %d 
001a6441 string SER: fd %ld saved speed %d 
001a645d string  FAILED
001a6465 string SER: => GPS: %s%s 
001a6478 string Blockdev
001a6481 string Serial
001a6488 string Bluetooth
001a6492 string Canbus
001a64a1 string GPSD JSON
001a64b0 string SUB,GPS: SF:4-%d data_id %d 
001a64cd string Spare Word
001a64d8 string Ephemeris 1
001a64e4 string Ephemeris 2
001a64f0 string Ephemeris 3
001a64fc string Ephemeris 4
001a6508 string Ionosphere
001a6513 string GST-UTC
001a651b string Almanacs 1
001a6526 string Almanacs 2
001a6531 string Almanacs 3
001a653c string Almanacs 4
001a6547 string Dummy Page
001a6552 string Unknown Word
001a655f string Health 1
001a6568 string Almanac 1
001a6572 string Other
001a6578 string Almanac 2
001a6582 string Unknown FraID
001a6590 string Health 20
001a659a string GST-GPS
001a65a2 string Extra 1
001a65aa string Extra 2
001a65b2 string Unknown stringnum
001a65c4 string SUB,GAL: page flipped? 
001a65dc string SUB: BDS, unknown sigId %u 
001a65f8 string SUB WN %u 
001a6603 string SUB HS %u 
001a660e string SUB unhandled mtype %u 
001a6626 string SUB: Unsupportd gnssId %u 
001a6641 string TZ=UTC
001a6648 string startup at %s (%ld) 
001a665d string # Date: %u-%u-%u
001a666e string century rollover detected. 
001a668a string ALLY: NAV-SVINFO bad svid %u 
001a66a8 string ALLY: NAV-SVINFO flags %ss 
001a66c4 string SW %.16s,HW %.16s
001a66d6 string ALLY: MON-VER: %s 
001a66e9 string ALLY: baudrate %u 
001a66fc string ALLY: invalid baudrate %u 
001a6717 string CFG-ANTIJAM
001a6723 string CFG-CARRSMOOTH
001a6732 string CFG-GEOFENCE
001a674a string CFG-NMEAVER
001a6756 string CFG-PPS
001a675e string CFG-PRT
001a6766 string MON-VER
001a676e string NAV-AUTO
001a6777 string NAV-CLOCK
001a6781 string NAV-CLOCK2
001a678c string NAV-DOP
001a6794 string NAV-POSECEF
001a67a0 string NAV-POSLLH
001a67ab string NAV-PVERR
001a67b5 string NAV-PVT
001a67bd string NAV-SVINFO
001a67c8 string NAV-SVSTATE
001a67d4 string NAV-TIME
001a67dd string NAV-TIMEUTC
001a67e9 string NAV-VELECEF
001a67f5 string NAV-VELNED
001a6800 string ALLY: runt message len %zu 
001a681c string ALLY: queue %d 
001a682c string ALLY: identified 
001a683e string ALLYSTAR
001a6847 string Below Hrz
001a6851 string Above Hrz
001a685b string Above mask
001a6866 string Aided
001a686c string Unhealthy
001a6876 string Valid tow
001a6880 string Valid week
001a688b string Valid UTC
001a6899 string INDIA
001a689f string leapsecond
001a68aa string Clock Bias
001a68c4 string RTTK Fix
001a68f5 string SBAS L1
001a69a9 string SW %.32s,HW %.32s
001a69bb string CASIC: MON-VER: %s 
001a69cf string CASIC: runt message len %zu 
001a69ec string CASIC: %s(%02x)-%02x 
001a6a02 string CASIC: identified 
001a6a15 string CASIC
001a6a1f string evermore_nmea_config(%d) 
001a6a39 string evermore_mode(%d) 
001a6a4c string evermore_protocol(%d) 
001a6a63 string valid rate range is 1-10. 
001a6a7e string evermore_speed(%u%c%d) 
001a6a96 string EverMore
001a6a9f string Abort current xfer
001a6ab2 string Start Xmit PVT data
001a6ac6 string Stop Xmit PVT data
001a6ad9 string Start RMD data
001a6aeb string Garmin: ACK 
001a6af8 string Garmin: NAK 
001a6b05 string Unknown: %u
001a6b11 string %d: %d.%02d
001a6b1d string Garmin: Product Desc: %s 
001a6b37 string Garmin: PVT Data (51) Sz: %d 
001a6b55 string Garmin: time_l: %lld 
001a6b6b string Garmin: UTC Time: %lld 
001a6b83 string Garmin: PVT RMD Data Sz: %d 
001a6ba0 string Garmin: SAT Data Sz: %d 
001a6bb9 string Garmin:   %c%03d 
001a6bcb string Garmin: Get Product Data 
001a6be5 string Garmin: garmin_close() 
001a6bfd string Garmin: garmin_ser_parse() 
001a6c19 string Garmin: Char: %#02x 
001a6c2e string Garmin: buf[0] not DLE 
001a6c46 string Garmin: Bad pkt_id %#02x 
001a6c60 string Garmin: Bad pkt_len %#02x 
001a6c7b string Garmin: Bad DLE %#02x 
001a6c92 string Garmin: Final DLE not DLE 
001a6cad string Garmin: Final ETX not ETX 
001a6cc8 string Garmin: Char %#02x 
001a6cdc string Garmin: garmin_ser_parse( ) 
001a6cf9 string USB device list call failed. 
001a6d17 string Garmin: PrintUSBPacket() 
001a6d31 string Garmin: really a SER packet! 
001a6d54 string Garmin: => GPS: FAILED 
001a6d6c string $PGRMC1,1,1
001a6d78 string Garmin Serial binary
001a6d8d string Garmin USB binary
001a6d9f string GTXT: Decoded string: %s 
001a6dc4 string GTXT: Invalid value %s 
001a6ddc string GTXT: Timestamp: %.12s 
001a6dfa string Sent GeoStar packet id 0x%x 
001a6e17 string geostar_detect found 
001a6e2d string $GPSGG,SWPROT
001a6e3b string unknown mode %i requested 
001a6e56 string Raw measurements 
001a6e68 string GPS sub-frame data 
001a6e7c string GLONASS sub-frame data 
001a6e94 string SVs in view %d 
001a6ea4 string ID %d Az %g El %g SNR %g 
001a6ebe string Negative acknowledge %x %d 
001a6eda string Response to Set GPS almanac 
001a6ef7 string %u.%u %u.%u.%u %x %c-%u 
001a6f10 string GeoStar
001a6f18 string GREIS: ER %3zd, reply: %.*s 
001a6f35 string GREIS: DC 
001a6f40 string GREIS: nothing to write 
001a6f59 string GREIS: Dummy write 
001a6f6d string %s%lu && %s%s && %s%d
001a6f83 string GREIS: ET bad len %zu 
001a6f9a string GREIS: ET, tod: %lu 
001a6faf string GREIS: PC 
001a6fba string GREIS: P3 
001a6fc5 string GREIS: RC 
001a6fd0 string GREIS: R3 
001a6fdb string GREIS: GT bad len %zu 
001a6ff2 string GREIS: UO bad len %zu 
001a7009 string GREIS: UO, leap_seconds: %d 
001a7026 string GREIS: EL 
001a7031 string GREIS: EC 
001a703c string GREIS: AZ 
001a7047 string GREIS: raw packet id '%c%c' 
001a7064 string GREIS: RT bad len %zu 
001a707b string GREIS: RT, tod: %lu 
001a7090 string GREIS: SI bad len %zu 
001a70a7 string GREIS: SG bad len %zu 
001a70c4 string GREIS: RE, ->subtype: %s 
001a70de string GREIS: RE %3zd, reply: %.*s 
001a70fb string GREIS: PV bad len %zu 
